[
  {
    "id": "mhajx01snm2s3v",
    "emoji": "ğŸ˜„",
    "label": "Happy",
    "timestamp": "2025-10-28T12:37:03.801Z",
    "country": "IT",
    "region": "Lombardy",
    "latitude": 45.9709196,
    "longitude": 12.6483843
  },
  {
    "id": "mhajx26rvewxcb",
    "emoji": "ğŸ˜„",
    "label": "Happy",
    "timestamp": "2025-10-28T12:37:06.748Z",
    "country": "IT",
    "region": "Lombardy",
    "latitude": 45.9709196,
    "longitude": 12.6483843
  },
  {
    "id": "mhajx3e75knlkt",
    "emoji": "ğŸ˜„",
    "label": "Happy",
    "timestamp": "2025-10-28T12:37:08.317Z",
    "country": "IT",
    "region": "Lombardy",
    "latitude": 45.9709196,
    "longitude": 12.6483843
  },
  {
    "id": "mhak7j7vdzukeu",
    "emoji": "ğŸ™‚",
    "label": "Contento",
    "timestamp": "2025-10-28T12:45:15.206Z",
    "country": "IT",
    "region": "Lombardy",
    "latitude": 45.9709183,
    "longitude": 12.6483915
  },
  {
    "id": "mhak8dkuez1drr",
    "emoji": "ğŸ˜´",
    "label": "Stanco",
    "timestamp": "2025-10-28T12:45:54.730Z",
    "country": "IT",
    "region": "Lombardy",
    "latitude": 45.97091,
    "longitude": 12.6484088
  },
  {
    "id": "mhak8n5cmlorix",
    "emoji": "ğŸ¤©",
    "label": "Entusiasta",
    "timestamp": "2025-10-28T12:46:07.124Z",
    "country": "IT",
    "region": "Lombardy",
    "latitude": 45.97091,
    "longitude": 12.6484088
  },
  {
    "id": "mhakefmp2z6x47",
    "emoji": "ğŸ˜¡",
    "label": "Arrabbiato",
    "timestamp": "2025-10-28T12:50:37.074Z",
    "country": "IT",
    "region": "Lombardy",
    "latitude": 45.9709087,
    "longitude": 12.6483854
  },
  {
    "id": "mhakibcctrd55z",
    "emoji": "ğŸ˜„",
    "label": "Felice",
    "timestamp": "2025-10-28T12:53:38.217Z",
    "country": "IT",
    "region": "Lombardy",
    "latitude": 45.9709084,
    "longitude": 12.6483636
  },
  {
    "id": "mhalam0mg5e2ad",
    "emoji": "ğŸ˜¡",
    "label": "Arrabbiato",
    "timestamp": "2025-10-28T13:15:38.431Z",
    "country": "IT",
    "region": "Lombardy",
    "latitude": 45.9709101,
    "longitude": 12.6483707
  },
  {
    "id": "mhalb7ut9votwe",
    "emoji": "ğŸ˜¡",
    "label": "Arrabbiato",
    "timestamp": "2025-10-28T13:16:06.875Z",
    "country": "IT",
    "region": "Lombardy",
    "latitude": 45.9709052,
    "longitude": 12.648355
  },
  {
    "id": "mhalb9hcq5w20l",
    "emoji": "ğŸ˜´",
    "label": "Stanco",
    "timestamp": "2025-10-28T13:16:09.004Z",
    "country": "IT",
    "region": "Lombardy",
    "latitude": 45.9709052,
    "longitude": 12.648355
  },
  {
    "id": "mhalba7m1710op",
    "emoji": "ğŸ˜¡",
    "label": "Arrabbiato",
    "timestamp": "2025-10-28T13:16:09.946Z",
    "country": "IT",
    "region": "Lombardy",
    "latitude": 45.9709052,
    "longitude": 12.648355
  },
  {
    "id": "mhalbask4k6cht",
    "emoji": "ğŸ˜´",
    "label": "Stanco",
    "timestamp": "2025-10-28T13:16:10.701Z",
    "country": "IT",
    "region": "Lombardy",
    "latitude": 45.9709052,
    "longitude": 12.648355
  },
  {
    "id": "mhalg387j9jq7a",
    "emoji": "ğŸ™‚",
    "label": "Contento",
    "timestamp": "2025-10-28T13:19:54.005Z",
    "country": "IT",
    "region": "Lombardy",
    "latitude": 45.9709071,
    "longitude": 12.6483902
  },
  {
    "id": "mhaljioiql343g",
    "emoji": "ğŸ˜„",
    "label": "Felice",
    "timestamp": "2025-10-28T13:22:33.997Z",
    "country": "IT",
    "region": "Lombardy",
    "latitude": 45.9709051,
    "longitude": 12.6483885
  },
  {
    "id": "mhalk1abjur847",
    "emoji": "ğŸ™‚",
    "label": "Contento",
    "timestamp": "2025-10-28T13:22:58.292Z",
    "country": "IT",
    "region": "Lombardy",
    "latitude": 45.9709076,
    "longitude": 12.6483657
  },
  {
    "id": "mhallw2kft5qdl",
    "emoji": "ğŸ™‚",
    "label": "Contento",
    "timestamp": "2025-10-28T13:24:24.699Z",
    "country": "IT",
    "region": "Lombardy",
    "latitude": 45.9709103,
    "longitude": 12.6483765
  },
  {
    "id": "mhalqmaewxioo4",
    "emoji": "ğŸ™‚",
    "label": "Contento",
    "timestamp": "2025-10-28T13:28:05.279Z",
    "country": "IT",
    "region": "Lombardy",
    "latitude": 45.9709102,
    "longitude": 12.6483939
  },
  {
    "id": "mham10yo7t8142",
    "emoji": "ğŸ˜„",
    "label": "Felice",
    "timestamp": "2025-10-28T13:36:10.850Z",
    "country": "IT",
    "region": "Lombardy",
    "latitude": 45.9709053,
    "longitude": 12.6483934
  },
  {
    "id": "mham3v4tm3oizp",
    "emoji": "ğŸ˜´",
    "label": "Stanco",
    "timestamp": "2025-10-28T13:38:23.438Z",
    "country": "IT",
    "region": "Lombardy",
    "latitude": 45.9709043,
    "longitude": 12.6483828
  },
  {
    "id": "mhamng73snnu69",
    "emoji": "ğŸ™‚",
    "label": "Contento",
    "timestamp": "2025-10-28T13:53:37.048Z",
    "country": "IT",
    "region": "Lombardy",
    "latitude": 45.9709127,
    "longitude": 12.6483766
  },
  {
    "id": "mhamnwp0lr62rn",
    "emoji": "ğŸ˜",
    "label": "Neutrale",
    "timestamp": "2025-10-28T13:53:58.585Z",
    "country": "IT",
    "region": "Lombardy",
    "latitude": 45.9709127,
    "longitude": 12.6483766
  },
  {
    "id": "mhamrsista9ql9",
    "emoji": "ğŸ™‚",
    "label": "Contento",
    "timestamp": "2025-10-28T13:56:59.725Z",
    "country": "IT",
    "region": "Lombardy",
    "latitude": 45.9709028,
    "longitude": 12.6483981
  },
  {
    "id": "mhan03nz8t1uy6",
    "emoji": "ğŸ˜°",
    "label": "Ansioso",
    "timestamp": "2025-10-28T14:03:27.481Z",
    "country": "IT",
    "region": "Lombardy",
    "latitude": 45.9709075,
    "longitude": 12.6483533
  },
  {
    "id": "mhanrh33tdgk7c",
    "emoji": "ğŸ˜„",
    "label": "Felice",
    "timestamp": "2025-10-28T14:24:44.403Z",
    "country": "IT",
    "region": "Lombardy",
    "latitude": 45.9709071,
    "longitude": 12.6483702
  },
  {
    "id": "mhao67jhhefqsz",
    "emoji": "ğŸ˜•",
    "label": "Triste",
    "timestamp": "2025-10-28T14:36:12.038Z",
    "country": "IT",
    "region": "Lombardy",
    "latitude": 45.9709057,
    "longitude": 12.648401
  }
]