[
  {
    "emoji": "ğŸ˜",
    "label": "ğŸ˜",
    "timestamp": "2025-10-30T09:10:42.611Z",
    "country": "CZ",
    "region": "Europe",
    "latitude": null,
    "longitude": null
  },
  {
    "emoji": "ğŸ˜",
    "label": "ğŸ˜",
    "timestamp": "2025-10-30T10:49:04.272Z",
    "country": "PL",
    "region": "Europe",
    "latitude": null,
    "longitude": null
  },
  {
    "emoji": "ğŸ˜„",
    "label": "ğŸ˜„",
    "timestamp": "2025-10-24T09:58:28.266Z",
    "country": "GR",
    "region": "Europe",
    "latitude": null,
    "longitude": null
  },
  {
    "emoji": "ğŸ˜´",
    "label": "ğŸ˜´",
    "timestamp": "2025-10-27T10:42:02.773Z",
    "country": "DE",
    "region": "Europe",
    "latitude": null,
    "longitude": null
  },
  {
    "emoji": "ğŸ¤©",
    "label": "ğŸ¤©",
    "timestamp": "2025-10-27T07:21:32.688Z",
    "country": "PT",
    "region": "Europe",
    "latitude": null,
    "longitude": null
  },
  {
    "emoji": "ğŸ™‚",
    "label": "ğŸ™‚",
    "timestamp": "2025-10-29T11:00:47.737Z",
    "country": "FR",
    "region": "Europe",
    "latitude": null,
    "longitude": null
  },
  {
    "emoji": "ğŸ˜",
    "label": "ğŸ˜",
    "timestamp": "2025-10-30T07:06:40.892Z",
    "country": "FI",
    "region": "Europe",
    "latitude": null,
    "longitude": null
  },
  {
    "emoji": "ğŸ™‚",
    "label": "ğŸ™‚",
    "timestamp": "2025-10-20T10:37:03.887Z",
    "country": "DE",
    "region": "Europe",
    "latitude": null,
    "longitude": null
  },
  {
    "emoji": "ğŸ¤”",
    "label": "ğŸ¤”",
    "timestamp": "2025-10-30T11:01:50.343Z",
    "country": "RO",
    "region": "Europe",
    "latitude": null,
    "longitude": null
  },
  {
    "emoji": "ğŸ˜",
    "label": "ğŸ˜",
    "timestamp": "2025-10-27T10:17:10.985Z",
    "country": "GB",
    "region": "Europe",
    "latitude": null,
    "longitude": null
  },
  {
    "emoji": "ğŸ˜„",
    "label": "ğŸ˜„",
    "timestamp": "2025-10-19T09:55:19.207Z",
    "country": "PT",
    "region": "Europe",
    "latitude": null,
    "longitude": null
  },
  {
    "emoji": "ğŸ¤”",
    "label": "ğŸ¤”",
    "timestamp": "2025-10-31T11:52:58.026Z",
    "country": "DK",
    "region": "Europe",
    "latitude": null,
    "longitude": null
  },
  {
    "emoji": "ğŸ˜´",
    "label": "ğŸ˜´",
    "timestamp": "2025-10-25T07:59:36.615Z",
    "country": "RO",
    "region": "Europe",
    "latitude": null,
    "longitude": null
  },
  {
    "emoji": "ğŸ¤©",
    "label": "ğŸ¤©",
    "timestamp": "2025-10-31T07:08:07.701Z",
    "country": "CZ",
    "region": "Europe",
    "latitude": null,
    "longitude": null
  },
  {
    "emoji": "ğŸ¤©",
    "label": "ğŸ¤©",
    "timestamp": "2025-10-29T12:51:15.687Z",
    "country": "AT",
    "region": "Europe",
    "latitude": null,
    "longitude": null
  },
  {
    "emoji": "ğŸ™‚",
    "label": "ğŸ™‚",
    "timestamp": "2025-10-30T07:58:57.853Z",
    "country": "HU",
    "region": "Europe",
    "latitude": null,
    "longitude": null
  },
  {
    "emoji": "ğŸ˜¢",
    "label": "ğŸ˜¢",
    "timestamp": "2025-10-30T12:33:41.290Z",
    "country": "NO",
    "region": "Europe",
    "latitude": null,
    "longitude": null
  },
  {
    "emoji": "ğŸ™‚",
    "label": "ğŸ™‚",
    "timestamp": "2025-10-31T11:21:15.788Z",
    "country": "IE",
    "region": "Europe",
    "latitude": null,
    "longitude": null
  },
  {
    "emoji": "ğŸ¤©",
    "label": "ğŸ¤©",
    "timestamp": "2025-10-18T10:36:51.600Z",
    "country": "NO",
    "region": "Europe",
    "latitude": null,
    "longitude": null
  },
  {
    "emoji": "ğŸ™‚",
    "label": "ğŸ™‚",
    "timestamp": "2025-10-28T12:35:17.671Z",
    "country": "NL",
    "region": "Europe",
    "latitude": null,
    "longitude": null
  },
  {
    "emoji": "ğŸ˜´",
    "label": "ğŸ˜´",
    "timestamp": "2025-10-30T09:15:51.143Z",
    "country": "AT",
    "region": "Europe",
    "latitude": null,
    "longitude": null
  },
  {
    "emoji": "ğŸ™‚",
    "label": "ğŸ™‚",
    "timestamp": "2025-10-25T09:13:55.133Z",
    "country": "IE",
    "region": "Europe",
    "latitude": null,
    "longitude": null
  },
  {
    "emoji": "ğŸ˜",
    "label": "ğŸ˜",
    "timestamp": "2025-10-29T11:04:03.918Z",
    "country": "NO",
    "region": "Europe",
    "latitude": null,
    "longitude": null
  },
  {
    "emoji": "ğŸ˜„",
    "label": "ğŸ˜„",
    "timestamp": "2025-10-31T10:53:47.550Z",
    "country": "CZ",
    "region": "Europe",
    "latitude": null,
    "longitude": null
  },
  {
    "emoji": "ğŸ˜¡",
    "label": "ğŸ˜¡",
    "timestamp": "2025-10-18T10:09:31.761Z",
    "country": "CZ",
    "region": "Europe",
    "latitude": null,
    "longitude": null
  }
]